{
"type": "FeatureCollection",
"name": "rang2",
"crs": { "type": "name", "properties": { "name": "urn:ogc:def:crs:OGC:1.3:CRS84" } },
"features": [
{ "type": "Feature", "properties": { "Name": "Actuncan", "descriptio": "\n\t\n      , Cayo, Belize  (Rank 2)\n      <br/>\n      <br/>Ref. Webster et al 2004\n\t\n\t" }, "geometry": { "type": "Point", "coordinates": [ -89.138495874200004, 17.1029144691, 0.0 ] } },
{ "type": "Feature", "properties": { "Name": "Aguateca", "descriptio": "\n\t\n      Sayaxche, Peten, Guatemala  (Rank 2)\n      <br/>\n      <br/>Ref. Witschey 2009\n\t\n\t" }, "geometry": { "type": "Point", "coordinates": [ -90.19995, 16.39889, 0.0 ] } },
{ "type": "Feature", "properties": { "Name": "Ake", "descriptio": "\n\t\n      Tixkokob, Yucatan, Mexico  (Rank 2)\n      <br/>\n      <br/>Ref. Witschey 2009\n\t\n\t" }, "geometry": { "type": "Point", "coordinates": [ -89.30182, 20.94928, 0.0 ] } },
{ "type": "Feature", "properties": { "Name": "Alejos", "descriptio": "\n\t\n      Champerico, Retalhuleu, Guatemala  (Rank 2)\n      <br/>\n      <br/>Ref. 1991,IGM, IAH GT Map\n\t\n\t" }, "geometry": { "type": "Point", "coordinates": [ -91.98773, 14.34777, 0.0 ] } },
{ "type": "Feature", "properties": { "Name": "Alta Mira", "descriptio": "\n\t\n      San Andres, Peten, Guatemala  (Rank 2)\n      <br/>\n      <br/>Ref. 1991,IGM, IAH GT Map\n\t\n\t" }, "geometry": { "type": "Point", "coordinates": [ -89.93688, 17.79721, 0.0 ] } },
{ "type": "Feature", "properties": { "Name": "Altar de los Reyes", "descriptio": "\n\t\n      Hopelchen, Campeche, Mexico  (Rank 2)\n      <br/>\n      <br/>Ref. Sprajc\n\t\n\t" }, "geometry": { "type": "Point", "coordinates": [ -89.406595889, 17.984282947299999, 0.0 ] } },
{ "type": "Feature", "properties": { "Name": "Altar de Sacrificios", "descriptio": "\n\t\n      Sayaxche, Peten, Guatemala  (Rank 2)\n      <br/>\n      <br/>Ref. 1991,IGM, IAH GT Map\n\t\n\t" }, "geometry": { "type": "Point", "coordinates": [ -90.5307, 16.47268, 0.0 ] } },
{ "type": "Feature", "properties": { "Name": "Altun Ha", "descriptio": "\n\t\n      , Belize, Belize  (Rank 2)\n      <br/>\n      <br/>Ref. Witschey 2009\n\t\n\t" }, "geometry": { "type": "Point", "coordinates": [ -88.34705, 17.76394, 0.0 ] } },
{ "type": "Feature", "properties": { "Name": "Asuncion Mita or Cerro de Laja", "descriptio": "\n\t\n      Asuncion Mita, Jutiapa, Guatemala  (Rank 2)\n      <br/>\n      <br/>Ref. 1991,IGM, IAH GT Map\n\t\n\t" }, "geometry": { "type": "Point", "coordinates": [ -89.71646, 14.32169, 0.0 ] } },
{ "type": "Feature", "properties": { "Name": "Balberta", "descriptio": "\n\t\n      La Democracia, Escuintla, Guatemala  (Rank 2)\n      <br/>\n      <br/>Ref. 1991,IGM, IAH GT Map\n\t\n\t" }, "geometry": { "type": "Point", "coordinates": [ -90.97498, 14.08587, 0.0 ] } },
{ "type": "Feature", "properties": { "Name": "Becan", "descriptio": "\n\t\n      Champoton, Campeche, Mexico  (Rank 2)\n      <br/>\n      <br/>Ref. Mayer 2006\n\t\n\t" }, "geometry": { "type": "Point", "coordinates": [ -89.46616667, 18.5165, 0.0 ] } },
{ "type": "Feature", "properties": { "Name": "Bilbao", "descriptio": "\n\t\n      Santa Lucia Cotzumalguapa, Escuintla, Guatemala  (Rank 2)\n      <br/>\n      <br/>Ref. Kelly 1996\n\t\n\t" }, "geometry": { "type": "Point", "coordinates": [ -91.01918631, 14.34146112, 0.0 ] } },
{ "type": "Feature", "properties": { "Name": "Buenavista", "descriptio": "\n\t\n      , Cayo, Belize  (Rank 2)\n      <br/>\n      <br/>Ref. Webster et al 2004\n\t\n\t" }, "geometry": { "type": "Point", "coordinates": [ -89.125250508299999, 17.136797963500001, 0.0 ] } },
{ "type": "Feature", "properties": { "Name": "Cacab", "descriptio": "\n\t\n      Hecelchakan, Campeche, Mexico  (Rank 2)\n      <br/>\n      <br/>Ref. Williams-Beck 1998\n\t\n\t" }, "geometry": { "type": "Point", "coordinates": [ -90.27868, 20.20433, 0.0 ] } },
{ "type": "Feature", "properties": { "Name": "Cahal Pech", "descriptio": "\n\t\n      , Cayo, Belize  (Rank 2)\n      <br/>\n      <br/>Ref. Kelly 1996\n\t\n\t" }, "geometry": { "type": "Point", "coordinates": [ -89.07332764, 17.14509525, 0.0 ] } },
{ "type": "Feature", "properties": { "Name": "Cak-Yiu", "descriptio": "\n\t\n      Rabinal, Baja Verapaz, Guatemala  (Rank 2)\n      <br/>\n      <br/>Ref. 1991,IGM, IAH GT Map\n\t\n\t" }, "geometry": { "type": "Point", "coordinates": [ -90.49165, 15.09334, 0.0 ] } },
{ "type": "Feature", "properties": { "Name": "Camelote", "descriptio": "\n\t\n      , Cayo, Belize  (Rank 2)\n      <br/>\n      <br/>Ref. Iannone 2003\n\t\n\t" }, "geometry": { "type": "Point", "coordinates": [ -88.8155349054, 17.242421784600001, 0.0 ] } },
{ "type": "Feature", "properties": { "Name": "Cantarrana", "descriptio": "\n\t\n      Chiquimulilla, Santa Rosa, Guatemala  (Rank 2)\n      <br/>\n      <br/>Ref. 1991,IGM, IAH GT Map\n\t\n\t" }, "geometry": { "type": "Point", "coordinates": [ -90.33828, 13.88387, 0.0 ] } },
{ "type": "Feature", "properties": { "Name": "Chama", "descriptio": "\n\t\n      Coban, Alta Verapaz, Guatemala  (Rank 2)\n      <br/>\n      <br/>Ref. 1991,IGM, IAH GT Map\n\t\n\t" }, "geometry": { "type": "Point", "coordinates": [ -90.62147, 15.59707, 0.0 ] } },
{ "type": "Feature", "properties": { "Name": "Champoton", "descriptio": "\n\t\n      Champoton, Campeche, Mexico  (Rank 2)\n      <br/>\n      <br/>Ref. Muller 1960\n\t\n\t" }, "geometry": { "type": "Point", "coordinates": [ -90.74735, 19.31915, 0.0 ] } },
{ "type": "Feature", "properties": { "Name": "Chiantla Vieja", "descriptio": "\n\t\n      Chiantla, Huehuetenango, Guatemala  (Rank 2)\n      <br/>\n      <br/>Ref. 1991,IGM, IAH GT Map\n\t\n\t" }, "geometry": { "type": "Point", "coordinates": [ -91.4637, 15.38154, 0.0 ] } },
{ "type": "Feature", "properties": { "Name": "Chiche", "descriptio": "\n\t\n      Chiche, Quiche, Guatemala  (Rank 2)\n      <br/>\n      <br/>Ref. 1991,IGM, IAH GT Map\n\t\n\t" }, "geometry": { "type": "Point", "coordinates": [ -91.07289, 14.99518, 0.0 ] } },
{ "type": "Feature", "properties": { "Name": "Chichen", "descriptio": "\n\t\n      Coban, Alta Verapaz, Guatemala  (Rank 2)\n      <br/>\n      <br/>Ref. 1991,IGM, IAH GT Map\n\t\n\t" }, "geometry": { "type": "Point", "coordinates": [ -90.36714, 15.37548, 0.0 ] } },
{ "type": "Feature", "properties": { "Name": "Chuitinamit", "descriptio": "\n\t\n      Rabinal, Baja Verapaz, Guatemala  (Rank 2)\n      <br/>\n      <br/>Ref. 1991,IGM, IAH GT Map\n\t\n\t" }, "geometry": { "type": "Point", "coordinates": [ -90.52842, 15.14677, 0.0 ] } },
{ "type": "Feature", "properties": { "Name": "Chuitinamit", "descriptio": "\n\t\n      Santiago Atitlan, Solola, Guatemala  (Rank 2)\n      <br/>\n      <br/>Ref. 1991,IGM, IAH GT Map\n\t\n\t" }, "geometry": { "type": "Point", "coordinates": [ -91.24302, 14.64849, 0.0 ] } },
{ "type": "Feature", "properties": { "Name": "Chuitinamit", "descriptio": "\n\t\n      Sacapulas, Quiche, Guatemala  (Rank 2)\n      <br/>\n      <br/>Ref. 1991,IGM, IAH GT Map\n\t\n\t" }, "geometry": { "type": "Point", "coordinates": [ -91.10146, 15.28712, 0.0 ] } },
{ "type": "Feature", "properties": { "Name": "Chunchucmil", "descriptio": "\n\t\n      Maxcanu, Yucatan, Mexico  (Rank 2)\n      <br/>\n      <br/>Ref. Witschey 2009\n\t\n\t" }, "geometry": { "type": "Point", "coordinates": [ -90.19619, 20.64824, 0.0 ] } },
{ "type": "Feature", "properties": { "Name": "Conacaste", "descriptio": "\n\t\n      Sanarate, El Progreso, Guatemala  (Rank 2)\n      <br/>\n      <br/>Ref. 1991,IGM, IAH GT Map\n\t\n\t" }, "geometry": { "type": "Point", "coordinates": [ -90.226, 14.79616, 0.0 ] } },
{ "type": "Feature", "properties": { "Name": "Cucal o Pucal", "descriptio": "\n\t\n      Malacatancito, Huehuetenango, Guatemala  (Rank 2)\n      <br/>\n      <br/>Ref. 1991,IGM, IAH GT Map\n\t\n\t" }, "geometry": { "type": "Point", "coordinates": [ -91.52283, 15.22512, 0.0 ] } },
{ "type": "Feature", "properties": { "Name": "Cuevas de Najtunich", "descriptio": "\n\t\n      Poptun, Peten, Guatemala  (Rank 2)\n      <br/>\n      <br/>Ref. 1991,IGM, IAH GT Map\n\t\n\t" }, "geometry": { "type": "Point", "coordinates": [ -89.2663, 16.26636, 0.0 ] } },
{ "type": "Feature", "properties": { "Name": "Cuevas de San Miguel", "descriptio": "\n\t\n      Dolores, Peten, Guatemala  (Rank 2)\n      <br/>\n      <br/>Ref. 1991,IGM, IAH GT Map\n\t\n\t" }, "geometry": { "type": "Point", "coordinates": [ -89.64742, 16.39356, 0.0 ] } },
{ "type": "Feature", "properties": { "Name": "Dos Hombres/737", "descriptio": "\n\t\n      , Orange Walk, Belize  (Rank 2)\n      <br/>\n      <br/>Ref. Vaughan 2006\n\t\n\t" }, "geometry": { "type": "Point", "coordinates": [ -89.005845943, 17.730466527299999, 0.0 ] } },
{ "type": "Feature", "properties": { "Name": "Dos Pilas", "descriptio": "\n\t\n      Sayaxche, Peten, Guatemala  (Rank 2)\n      <br/>\n      <br/>Ref. Demarest 1981\n\t\n\t" }, "geometry": { "type": "Point", "coordinates": [ -90.303324680900005, 16.4371245681, 0.0 ] } },
{ "type": "Feature", "properties": { "Name": "Dzibilchaltun", "descriptio": "\n\t\n      Merida, Yucatan, Mexico  (Rank 2)\n      <br/>\n      <br/>Ref. Witschey 2007\n\t\n\t" }, "geometry": { "type": "Point", "coordinates": [ -89.59722833719016, 21.090914007385919, 0.0 ] } },
{ "type": "Feature", "properties": { "Name": "Dzilam Gonzalez", "descriptio": "\n\t\n      Dzilam Gonzalez, Yucatan, Mexico  (Rank 2)\n      <br/>\n      <br/>Ref. Covarrubias,  Villanueva 2008\n\t\n\t" }, "geometry": { "type": "Point", "coordinates": [ -88.929929729199998, 21.281429773799999, 0.0 ] } },
{ "type": "Feature", "properties": { "Name": "Edzna", "descriptio": "\n\t\n      Campeche, Campeche, Mexico  (Rank 2)\n      <br/>\n      <br/>Ref. Witschey 2009\n\t\n\t" }, "geometry": { "type": "Point", "coordinates": [ -90.22908, 19.59667, 0.0 ] } },
{ "type": "Feature", "properties": { "Name": "Ek Balam", "descriptio": "\n\t\n      Temozon, Yucatan, Mexico  (Rank 2)\n      <br/>\n      <br/>Ref. Mayer 2006\n\t\n\t" }, "geometry": { "type": "Point", "coordinates": [ -88.13583333, 20.892, 0.0 ] } },
{ "type": "Feature", "properties": { "Name": "El Baul", "descriptio": "\n\t\n      Santa Lucia Cotzumalguapa, Escuintla, Guatemala  (Rank 2)\n      <br/>\n      <br/>Ref. Kelly 1996\n\t\n\t" }, "geometry": { "type": "Point", "coordinates": [ -91.00853267, 14.36557653, 0.0 ] } },
{ "type": "Feature", "properties": { "Name": "El Ceibal", "descriptio": "\n\t\n      Sayaxche, Peten, Guatemala  (Rank 2)\n      <br/>\n      <br/>Ref. Kelly 1996\n\t\n\t" }, "geometry": { "type": "Point", "coordinates": [ -90.06232155, 16.51226195, 0.0 ] } },
{ "type": "Feature", "properties": { "Name": "El Chile", "descriptio": "\n\t\n      Agua Blanca, Jutiapa, Guatemala  (Rank 2)\n      <br/>\n      <br/>Ref. 1991,IGM, IAH GT Map\n\t\n\t" }, "geometry": { "type": "Point", "coordinates": [ -89.65471, 14.49636, 0.0 ] } },
{ "type": "Feature", "properties": { "Name": "El Durazno", "descriptio": "\n\t\n      San Pedro Pinula, Jalapa, Guatemala  (Rank 2)\n      <br/>\n      <br/>Ref. 1991,IGM, IAH GT Map\n\t\n\t" }, "geometry": { "type": "Point", "coordinates": [ -89.79764, 14.65665, 0.0 ] } },
{ "type": "Feature", "properties": { "Name": "El Jarain", "descriptio": "\n\t\n      Ayutla, San Marcos, Guatemala  (Rank 2)\n      <br/>\n      <br/>Ref. 1991,IGM, IAH GT Map\n\t\n\t" }, "geometry": { "type": "Point", "coordinates": [ -92.11743, 14.76364, 0.0 ] } },
{ "type": "Feature", "properties": { "Name": "El Jobo", "descriptio": "\n\t\n      Tecun Uman, San Marcos, Guatemala  (Rank 2)\n      <br/>\n      <br/>Ref. 1991,IGM, IAH GT Map\n\t\n\t" }, "geometry": { "type": "Point", "coordinates": [ -92.12872, 14.67285, 0.0 ] } },
{ "type": "Feature", "properties": { "Name": "El Sare", "descriptio": "\n\t\n      Jalapa, Jalapa, Guatemala  (Rank 2)\n      <br/>\n      <br/>Ref. 1991,IGM, IAH GT Map\n\t\n\t" }, "geometry": { "type": "Point", "coordinates": [ -89.98639, 14.64777, 0.0 ] } },
{ "type": "Feature", "properties": { "Name": "El Zotz", "descriptio": "\n\t\n      San Jose, Peten, Guatemala  (Rank 2)\n      <br/>\n      <br/>Ref. Mayer 2006\n\t\n\t" }, "geometry": { "type": "Point", "coordinates": [ -89.81966667, 17.23666667, 0.0 ] } },
{ "type": "Feature", "properties": { "Name": "Guaycamayo", "descriptio": "\n\t\n      , Cayo, Belize  (Rank 2)\n      <br/>\n      <br/>Ref. Webster et al 2004\n\t\n\t" }, "geometry": { "type": "Point", "coordinates": [ -89.073501171399997, 17.076885784800002, 0.0 ] } },
{ "type": "Feature", "properties": { "Name": "Guaytan", "descriptio": "\n\t\n      San Agustin Acasaguastlan, El Progreso, Guatemala  (Rank 2)\n      <br/>\n      <br/>Ref. 1991,IGM, IAH GT Map\n\t\n\t" }, "geometry": { "type": "Point", "coordinates": [ -89.97367, 14.92193, 0.0 ] } },
{ "type": "Feature", "properties": { "Name": "Halal", "descriptio": "\n\t\n      Hecelchakan, Campeche, Mexico  (Rank 2)\n      <br/>\n      <br/>Ref. Witschey 2009\n\t\n\t" }, "geometry": { "type": "Point", "coordinates": [ -89.91295, 20.07898, 0.0 ] } },
{ "type": "Feature", "properties": { "Name": "Hochob", "descriptio": "\n\t\n      Hopelchen, Campeche, Mexico  (Rank 2)\n      <br/>\n      <br/>Ref. Kelly 1993\n\t\n\t" }, "geometry": { "type": "Point", "coordinates": [ -89.77168844, 19.40775095, 0.0 ] } },
{ "type": "Feature", "properties": { "Name": "Ichkabal", "descriptio": "\n\t\n      , Quintana Roo, Mexico  (Rank 2)\n      <br/>\n      <br/>Ref. Perez\n\t\n\t" }, "geometry": { "type": "Point", "coordinates": [ -88.261414, 18.90239, 0.0 ] } },
{ "type": "Feature", "properties": { "Name": "Itzan", "descriptio": "\n\t\n      La Libertad, Peten, Guatemala  (Rank 2)\n      <br/>\n      <br/>Ref. 1991,IGM, IAH GT Map\n\t\n\t" }, "geometry": { "type": "Point", "coordinates": [ -90.48285, 16.58237, 0.0 ] } },
{ "type": "Feature", "properties": { "Name": "Itzimte", "descriptio": "\n\t\n      San Benito, Peten, Guatemala  (Rank 2)\n      <br/>\n      <br/>Ref. 1991,IGM, IAH GT Map\n\t\n\t" }, "geometry": { "type": "Point", "coordinates": [ -90.16653, 16.91558, 0.0 ] } },
{ "type": "Feature", "properties": { "Name": "Itzimte", "descriptio": "\n\t\n      Hopelchen, Campeche, Mexico  (Rank 2)\n      <br/>\n      <br/>Ref. Dunning 1992\n\t\n\t" }, "geometry": { "type": "Point", "coordinates": [ -89.73161, 20.01552, 0.0 ] } },
{ "type": "Feature", "properties": { "Name": "Iximche", "descriptio": "\n\t\n      Tecpan Guatemala, Chimaltenango, Guatemala  (Rank 2)\n      <br/>\n      <br/>Ref. Kelly 1996\n\t\n\t" }, "geometry": { "type": "Point", "coordinates": [ -90.99559411, 14.73494803, 0.0 ] } },
{ "type": "Feature", "properties": { "Name": "Ixtepeque", "descriptio": "\n\t\n      Nueva Concepcion, Escuintla, Guatemala  (Rank 2)\n      <br/>\n      <br/>Ref. 1991,IGM, IAH GT Map\n\t\n\t" }, "geometry": { "type": "Point", "coordinates": [ -91.29947, 14.13833, 0.0 ] } },
{ "type": "Feature", "properties": { "Name": "Ixtonton", "descriptio": "\n\t\n      Dolores, Peten, Guatemala  (Rank 2)\n      <br/>\n      <br/>Ref. Mayer 2006\n\t\n\t" }, "geometry": { "type": "Point", "coordinates": [ -89.39475, 16.508566666666667, 0.0 ] } },
{ "type": "Feature", "properties": { "Name": "Kabah", "descriptio": "\n\t\n      Santa Elena, Yucatan, Mexico  (Rank 2)\n      <br/>\n      <br/>Ref. Witschey 2009\n\t\n\t" }, "geometry": { "type": "Point", "coordinates": [ -89.6477, 20.24802, 0.0 ] } },
{ "type": "Feature", "properties": { "Name": "Kichmook", "descriptio": "\n\t\n      Hopelchen, Campeche, Mexico  (Rank 2)\n      <br/>\n      <br/>Ref. Muller 1960\n\t\n\t" }, "geometry": { "type": "Point", "coordinates": [ -89.79569, 19.96837, 0.0 ] } },
{ "type": "Feature", "properties": { "Name": "Kinal", "descriptio": "\n\t\n      Melchor de Mencos, Peten, Guatemala  (Rank 2)\n      <br/>\n      <br/>Ref. 1991,IGM, IAH GT Map\n\t\n\t" }, "geometry": { "type": "Point", "coordinates": [ -89.25128, 17.69405, 0.0 ] } },
{ "type": "Feature", "properties": { "Name": "Kohunlich", "descriptio": "\n\t\n      Othon P. Blanco, Quintana Roo, Mexico  (Rank 2)\n      <br/>\n      <br/>Ref. Kelly 1998\n\t\n\t" }, "geometry": { "type": "Point", "coordinates": [ -88.793, 18.4197, 0.0 ] } },
{ "type": "Feature", "properties": { "Name": "Komchen", "descriptio": "\n\t\n      Merida, Yucatan, Mexico  (Rank 2)\n      <br/>\n      <br/>Ref. Brown C T 1999\n\t\n\t" }, "geometry": { "type": "Point", "coordinates": [ -89.66516887, 21.09925945, 0.0 ] } },
{ "type": "Feature", "properties": { "Name": "La Blanca", "descriptio": "\n\t\n      Ocos, San Marcos, Guatemala  (Rank 2)\n      <br/>\n      <br/>Ref. 1991,IGM, IAH GT Map\n\t\n\t" }, "geometry": { "type": "Point", "coordinates": [ -92.14019, 14.59213, 0.0 ] } },
{ "type": "Feature", "properties": { "Name": "La Lagunita", "descriptio": "\n\t\n      Canilla, Quiche, Guatemala  (Rank 2)\n      <br/>\n      <br/>Ref. 1991,IGM, IAH GT Map\n\t\n\t" }, "geometry": { "type": "Point", "coordinates": [ -90.88887, 15.15765, 0.0 ] } },
{ "type": "Feature", "properties": { "Name": "La Milpa", "descriptio": "\n\t\n      , Orange Walk, Belize  (Rank 2)\n      <br/>\n      <br/>Ref. Vaughan 2006\n\t\n\t" }, "geometry": { "type": "Point", "coordinates": [ -89.053209904100001, 17.832965309199999, 0.0 ] } },
{ "type": "Feature", "properties": { "Name": "La Selva", "descriptio": "\n\t\n      Tiquisate, Escuintla, Guatemala  (Rank 2)\n      <br/>\n      <br/>Ref. 1991,IGM, IAH GT Map\n\t\n\t" }, "geometry": { "type": "Point", "coordinates": [ -91.30455, 13.96297, 0.0 ] } },
{ "type": "Feature", "properties": { "Name": "La Tortuga", "descriptio": "\n\t\n      Retalhuleu, Retalhuleu, Guatemala  (Rank 2)\n      <br/>\n      <br/>Ref. 1991,IGM, IAH GT Map\n\t\n\t" }, "geometry": { "type": "Point", "coordinates": [ -91.79721, 14.41634, 0.0 ] } },
{ "type": "Feature", "properties": { "Name": "La Venta", "descriptio": "\n\t\n      Huimanguillo, Tabasco, Mexico  (Rank 2)\n      <br/>\n      <br/>Ref. Witschey 2009\n\t\n\t" }, "geometry": { "type": "Point", "coordinates": [ -94.04096, 18.10335, 0.0 ] } },
{ "type": "Feature", "properties": { "Name": "La Ventana", "descriptio": "\n\t\n      Tinum, Yucatan, Mexico  (Rank 2)\n      <br/>\n      <br/>Ref. Garza and Kurjack 1980\n\t\n\t" }, "geometry": { "type": "Point", "coordinates": [ -88.584208207884515, 20.690809350826804, 0.0 ] } },
{ "type": "Feature", "properties": { "Name": "Labna", "descriptio": "\n\t\n      Oxkutzcab, Yucatan, Mexico  (Rank 2)\n      <br/>\n      <br/>Ref. Mayer 2006\n\t\n\t" }, "geometry": { "type": "Point", "coordinates": [ -89.578716666666665, 20.171183333333332, 0.0 ] } },
{ "type": "Feature", "properties": { "Name": "Laguna Ayarza", "descriptio": "\n\t\n      Castilla, Santa Rosa, Guatemala  (Rank 2)\n      <br/>\n      <br/>Ref. 1991,IGM, IAH GT Map\n\t\n\t" }, "geometry": { "type": "Point", "coordinates": [ -90.14611, 14.41955, 0.0 ] } },
{ "type": "Feature", "properties": { "Name": "Lamanai", "descriptio": "\n\t\n      , Orange Walk, Belize  (Rank 2)\n      <br/>\n      <br/>Ref. Witschey 2009\n\t\n\t" }, "geometry": { "type": "Point", "coordinates": [ -88.65251, 17.76752, 0.0 ] } },
{ "type": "Feature", "properties": { "Name": "Las Ruinas / Arenal", "descriptio": "\n\t\n      , Cayo, Belize  (Rank 2)\n      <br/>\n      <br/>Ref. Webster et al 2004\n\t\n\t" }, "geometry": { "type": "Point", "coordinates": [ -89.126944683, 17.0411540998, 0.0 ] } },
{ "type": "Feature", "properties": { "Name": "Las Tinajas", "descriptio": "\n\t\n      Ponzos, Alta Verapaz, Guatemala  (Rank 2)\n      <br/>\n      <br/>Ref. 1991,IGM, IAH GT Map\n\t\n\t" }, "geometry": { "type": "Point", "coordinates": [ -89.6647, 15.29495, 0.0 ] } },
{ "type": "Feature", "properties": { "Name": "Los Cerritos", "descriptio": "\n\t\n      Chiquimulilla, Santa Rosa, Guatemala  (Rank 2)\n      <br/>\n      <br/>Ref. 1991,IGM, IAH GT Map\n\t\n\t" }, "geometry": { "type": "Point", "coordinates": [ -90.30597, 13.96783, 0.0 ] } },
{ "type": "Feature", "properties": { "Name": "Los Cerritos Chijoj", "descriptio": "\n\t\n      Canilla, Quiche, Guatemala  (Rank 2)\n      <br/>\n      <br/>Ref. 1991,IGM, IAH GT Map\n\t\n\t" }, "geometry": { "type": "Point", "coordinates": [ -90.85587, 15.17696, 0.0 ] } },
{ "type": "Feature", "properties": { "Name": "Los Encuentros", "descriptio": "\n\t\n      Rabinal, Baja Verapaz, Guatemala  (Rank 2)\n      <br/>\n      <br/>Ref. 1991,IGM, IAH GT Map\n\t\n\t" }, "geometry": { "type": "Point", "coordinates": [ -90.49687, 15.25523, 0.0 ] } },
{ "type": "Feature", "properties": { "Name": "Los Tapiales", "descriptio": "\n\t\n      Totonicapan, Totonicapan, Guatemala  (Rank 2)\n      <br/>\n      <br/>Ref. 1991,IGM, IAH GT Map\n\t\n\t" }, "geometry": { "type": "Point", "coordinates": [ -91.25513, 14.87995, 0.0 ] } },
{ "type": "Feature", "properties": { "Name": "Maax Na", "descriptio": "\n\t\n      , Orange Walk, Belize  (Rank 2)\n      <br/>\n      <br/>Ref. Vaughan 2006\n\t\n\t" }, "geometry": { "type": "Point", "coordinates": [ -89.063661206700004, 17.764088111100001, 0.0 ] } },
{ "type": "Feature", "properties": { "Name": "Mayapan", "descriptio": "\n\t\n      Tecoh, Yucatan, Mexico  (Rank 2)\n      <br/>\n      <br/>Ref. Mayer 2006\n\t\n\t" }, "geometry": { "type": "Point", "coordinates": [ -89.461, 20.629, 0.0 ] } },
{ "type": "Feature", "properties": { "Name": "Media Cuesta", "descriptio": "\n\t\n      San Rafael Las Flores, Santa Rosa, Guatemala  (Rank 2)\n      <br/>\n      <br/>Ref. 1991,IGM, IAH GT Map\n\t\n\t" }, "geometry": { "type": "Point", "coordinates": [ -90.11777, 14.43385, 0.0 ] } },
{ "type": "Feature", "properties": { "Name": "Mixco Viejo", "descriptio": "\n\t\n      San Martin Jilotepeque, Chimaltenango, Guatemala  (Rank 2)\n      <br/>\n      <br/>Ref. 1991,IGM, IAH GT Map\n\t\n\t" }, "geometry": { "type": "Point", "coordinates": [ -90.66225, 14.86795, 0.0 ] } },
{ "type": "Feature", "properties": { "Name": "Monte Alto", "descriptio": "\n\t\n      La Democracia, Escuintla, Guatemala  (Rank 2)\n      <br/>\n      <br/>Ref. 1991,IGM, IAH GT Map\n\t\n\t" }, "geometry": { "type": "Point", "coordinates": [ -90.94237, 14.22231, 0.0 ] } },
{ "type": "Feature", "properties": { "Name": "Muluchtzekel", "descriptio": "\n\t\n      Oxkutzcab, Yucatan, Mexico  (Rank 2)\n      <br/>\n      <br/>Ref. Dunning 1992\n\t\n\t" }, "geometry": { "type": "Point", "coordinates": [ -89.54974, 20.22863, 0.0 ] } },
{ "type": "Feature", "properties": { "Name": "Nancinta", "descriptio": "\n\t\n      Chiquimulilla, Santa Rosa, Guatemala  (Rank 2)\n      <br/>\n      <br/>Ref. 1991,IGM, IAH GT Map\n\t\n\t" }, "geometry": { "type": "Point", "coordinates": [ -90.30832, 14.03932, 0.0 ] } },
{ "type": "Feature", "properties": { "Name": "Naranjal", "descriptio": "\n\t\n      Lazaro Cardenas, Quintana Roo, Mexico  (Rank 2)\n      <br/>\n      <br/>Ref. Glover and Estaban 2005\n\t\n\t" }, "geometry": { "type": "Point", "coordinates": [ -87.47702, 20.8006, 0.0 ] } },
{ "type": "Feature", "properties": { "Name": "Naranjo", "descriptio": "\n\t\n      Melchor de Mencos, Peten, Guatemala  (Rank 2)\n      <br/>\n      <br/>Ref. 1991,IGM, IAH GT Map\n\t\n\t" }, "geometry": { "type": "Point", "coordinates": [ -89.26065, 17.13839, 0.0 ] } },
{ "type": "Feature", "properties": { "Name": "Naranjo", "descriptio": "\n\t\n      Guatemala, Guatemala, Guatemala  (Rank 2)\n      <br/>\n      <br/>Ref. 1991,IGM, IAH GT Map\n\t\n\t" }, "geometry": { "type": "Point", "coordinates": [ -90.54045, 14.65148, 0.0 ] } },
{ "type": "Feature", "properties": { "Name": "Nohpat", "descriptio": "\n\t\n      Santa Elena, Yucatan, Mexico  (Rank 2)\n      <br/>\n      <br/>Ref. Witschey 2009\n\t\n\t" }, "geometry": { "type": "Point", "coordinates": [ -89.70344, 20.31509, 0.0 ] } },
{ "type": "Feature", "properties": { "Name": "Nueve Cerros", "descriptio": "\n\t\n      Chiquimulilla, Santa Rosa, Guatemala  (Rank 2)\n      <br/>\n      <br/>Ref. 1991,IGM, IAH GT Map\n\t\n\t" }, "geometry": { "type": "Point", "coordinates": [ -90.33919, 13.91498, 0.0 ] } },
{ "type": "Feature", "properties": { "Name": "Obraje o Solis", "descriptio": "\n\t\n      Chiquimulilla, Santa Rosa, Guatemala  (Rank 2)\n      <br/>\n      <br/>Ref. 1991,IGM, IAH GT Map\n\t\n\t" }, "geometry": { "type": "Point", "coordinates": [ -90.38918, 14.03902, 0.0 ] } },
{ "type": "Feature", "properties": { "Name": "Oxkintok", "descriptio": "\n\t\n      Opichen, Yucatan, Mexico  (Rank 2)\n      <br/>\n      <br/>Ref. Kelly 1993\n\t\n\t" }, "geometry": { "type": "Point", "coordinates": [ -89.95343484, 20.56124682, 0.0 ] } },
{ "type": "Feature", "properties": { "Name": "Pacbitun", "descriptio": "\n\t\n      , Cayo, Belize  (Rank 2)\n      <br/>\n      <br/>Ref. Kelly 1996\n\t\n\t" }, "geometry": { "type": "Point", "coordinates": [ -88.99434017, 17.09211453, 0.0 ] } },
{ "type": "Feature", "properties": { "Name": "Panaba", "descriptio": "\n\t\n      Panaba, Yucatan, Mexico  (Rank 2)\n      <br/>\n      <br/>Ref. Garza and Kurjack 1980\n\t\n\t" }, "geometry": { "type": "Point", "coordinates": [ -88.272551673900551, 21.298700442410947, 0.0 ] } },
{ "type": "Feature", "properties": { "Name": "Pantzac (Kakbaja, Sajcabaja)", "descriptio": "\n\t\n      Canilla, Quiche, Guatemala  (Rank 2)\n      <br/>\n      <br/>Ref. 1991,IGM, IAH GT Map\n\t\n\t" }, "geometry": { "type": "Point", "coordinates": [ -90.87312, 15.20735, 0.0 ] } },
{ "type": "Feature", "properties": { "Name": "Papalhuapa", "descriptio": "\n\t\n      Agua Blanca, Jutiapa, Guatemala  (Rank 2)\n      <br/>\n      <br/>Ref. 1991,IGM, IAH GT Map\n\t\n\t" }, "geometry": { "type": "Point", "coordinates": [ -89.64321, 14.43573, 0.0 ] } },
{ "type": "Feature", "properties": { "Name": "Pataxte", "descriptio": "\n\t\n      El Estor, Izabal, Guatemala  (Rank 2)\n      <br/>\n      <br/>Ref. 1991,IGM, IAH GT Map\n\t\n\t" }, "geometry": { "type": "Point", "coordinates": [ -89.28575, 15.35367, 0.0 ] } },
{ "type": "Feature", "properties": { "Name": "Patzac (Xepatzac, Ziguan Tinamit)", "descriptio": "\n\t\n      Canilla, Quiche, Guatemala  (Rank 2)\n      <br/>\n      <br/>Ref. 1991,IGM, IAH GT Map\n\t\n\t" }, "geometry": { "type": "Point", "coordinates": [ -90.90097, 15.20216, 0.0 ] } },
{ "type": "Feature", "properties": { "Name": "Petatan or Axola", "descriptio": "\n\t\n      Santiago Chimaltenango, Huehuetenango, Guatemala  (Rank 2)\n      <br/>\n      <br/>Ref. 1991,IGM, IAH GT Map\n\t\n\t" }, "geometry": { "type": "Point", "coordinates": [ -91.72016, 15.60968, 0.0 ] } },
{ "type": "Feature", "properties": { "Name": "Piedra del Coyote", "descriptio": "\n\t\n      Totonicapan, Totonicapan, Guatemala  (Rank 2)\n      <br/>\n      <br/>Ref. 1991,IGM, IAH GT Map\n\t\n\t" }, "geometry": { "type": "Point", "coordinates": [ -91.26452, 14.8868, 0.0 ] } },
{ "type": "Feature", "properties": { "Name": "Pueblo Viejo Chichaj", "descriptio": "\n\t\n      Zacualpa, Quiche, Guatemala  (Rank 2)\n      <br/>\n      <br/>Ref. 1991,IGM, IAH GT Map\n\t\n\t" }, "geometry": { "type": "Point", "coordinates": [ -90.81219, 15.12214, 0.0 ] } },
{ "type": "Feature", "properties": { "Name": "Quen Santo", "descriptio": "\n\t\n      Nenton, Huehuetenango, Guatemala  (Rank 2)\n      <br/>\n      <br/>Ref. 1991,IGM, IAH GT Map\n\t\n\t" }, "geometry": { "type": "Point", "coordinates": [ -91.73944, 16.0172, 0.0 ] } },
{ "type": "Feature", "properties": { "Name": "Quirigua", "descriptio": "\n\t\n      Los Amates, Izabal, Guatemala  (Rank 2)\n      <br/>\n      <br/>Ref. Witschey 2009\n\t\n\t" }, "geometry": { "type": "Point", "coordinates": [ -89.04007, 15.27023, 0.0 ] } },
{ "type": "Feature", "properties": { "Name": "Ramon", "descriptio": "\n\t\n      Coatepeque, Quezaltenango, Guatemala  (Rank 2)\n      <br/>\n      <br/>Ref. 1991,IGM, IAH GT Map\n\t\n\t" }, "geometry": { "type": "Point", "coordinates": [ -91.96438, 14.69428, 0.0 ] } },
{ "type": "Feature", "properties": { "Name": "Rancho Nohcacab", "descriptio": "\n\t\n      Oxkutzcab, Yucatan, Mexico  (Rank 2)\n      <br/>\n      <br/>Ref. Dunning 1992\n\t\n\t" }, "geometry": { "type": "Point", "coordinates": [ -89.38796, 20.03313, 0.0 ] } },
{ "type": "Feature", "properties": { "Name": "Rio Azul", "descriptio": "\n\t\n      Melchor de Mencos, Peten, Guatemala  (Rank 2)\n      <br/>\n      <br/>Ref. Adams 1999 Rio Azul p. 30\n\t\n\t" }, "geometry": { "type": "Point", "coordinates": [ -89.28195, 17.78163, 0.0 ] } },
{ "type": "Feature", "properties": { "Name": "Rio Jesus", "descriptio": "\n\t\n      Champerico, Retalhuleu, Guatemala  (Rank 2)\n      <br/>\n      <br/>Ref. 1991,IGM, IAH GT Map\n\t\n\t" }, "geometry": { "type": "Point", "coordinates": [ -91.92325, 14.4039, 0.0 ] } },
{ "type": "Feature", "properties": { "Name": "Sakajut", "descriptio": "\n\t\n      San Juan Chamelco, Alta Verapaz, Guatemala  (Rank 2)\n      <br/>\n      <br/>Ref. 1991,IGM, IAH GT Map\n\t\n\t" }, "geometry": { "type": "Point", "coordinates": [ -90.34674, 15.39614, 0.0 ] } },
{ "type": "Feature", "properties": { "Name": "San Antonio Naranjo", "descriptio": "\n\t\n      Coatepeque, Quezaltenango, Guatemala  (Rank 2)\n      <br/>\n      <br/>Ref. 1991,IGM, IAH GT Map\n\t\n\t" }, "geometry": { "type": "Point", "coordinates": [ -92.10446, 14.65243, 0.0 ] } },
{ "type": "Feature", "properties": { "Name": "San Esteban", "descriptio": "\n\t\n      Chiquimula, Chiquimula, Guatemala  (Rank 2)\n      <br/>\n      <br/>Ref. 1991,IGM, IAH GT Map\n\t\n\t" }, "geometry": { "type": "Point", "coordinates": [ -89.49666, 14.6393, 0.0 ] } },
{ "type": "Feature", "properties": { "Name": "San Fernando", "descriptio": "\n\t\n      Tizimin, Yucatan, Mexico  (Rank 2)\n      <br/>\n      <br/>Ref. Kepecs 1999\n\t\n\t" }, "geometry": { "type": "Point", "coordinates": [ -87.885913808799998, 21.445738405, 0.0 ] } },
{ "type": "Feature", "properties": { "Name": "San Francisco Ticul", "descriptio": "\n\t\n      Ticul, Yucatan, Mexico  (Rank 2)\n      <br/>\n      <br/>Ref. Dunning 1992\n\t\n\t" }, "geometry": { "type": "Point", "coordinates": [ -89.5328, 20.42212, 0.0 ] } },
{ "type": "Feature", "properties": { "Name": "San Jose Apantes", "descriptio": "\n\t\n      San Agustin Acasaguastlan, El Progreso, Guatemala  (Rank 2)\n      <br/>\n      <br/>Ref. 1991,IGM, IAH GT Map\n\t\n\t" }, "geometry": { "type": "Point", "coordinates": [ -90.02757, 14.98023, 0.0 ] } },
{ "type": "Feature", "properties": { "Name": "San Pedro Pinula", "descriptio": "\n\t\n      San Pedro Pinula, Jalapa, Guatemala  (Rank 2)\n      <br/>\n      <br/>Ref. 1991,IGM, IAH GT Map\n\t\n\t" }, "geometry": { "type": "Point", "coordinates": [ -89.87043, 14.66864, 0.0 ] } },
{ "type": "Feature", "properties": { "Name": "Santa Pilar", "descriptio": "\n\t\n      Tizimin, Yucatan, Mexico  (Rank 2)\n      <br/>\n      <br/>Ref. Kepecs 1999\n\t\n\t" }, "geometry": { "type": "Point", "coordinates": [ -87.990569015399998, 21.367453632, 0.0 ] } },
{ "type": "Feature", "properties": { "Name": "Santa Rosa", "descriptio": "\n\t\n      El Estor, Izabal, Guatemala  (Rank 2)\n      <br/>\n      <br/>Ref. 1991,IGM, IAH GT Map\n\t\n\t" }, "geometry": { "type": "Point", "coordinates": [ -89.28134, 15.55142, 0.0 ] } },
{ "type": "Feature", "properties": { "Name": "Santa Rosa Xtampak", "descriptio": "\n\t\n      Hopelchen, Campeche, Mexico  (Rank 2)\n      <br/>\n      <br/>Ref. Mayer 2006\n\t\n\t" }, "geometry": { "type": "Point", "coordinates": [ -89.598766666666663, 19.772566666666666, 0.0 ] } },
{ "type": "Feature", "properties": { "Name": "Sayil", "descriptio": "\n\t\n      Hopelchen, Campeche, Mexico  (Rank 2)\n      <br/>\n      <br/>Ref. Witschey 2009\n\t\n\t" }, "geometry": { "type": "Point", "coordinates": [ -89.65209, 20.17784, 0.0 ] } },
{ "type": "Feature", "properties": { "Name": "Sepila", "descriptio": "\n\t\n      El Estor, Izabal, Guatemala  (Rank 2)\n      <br/>\n      <br/>Ref. 1991,IGM, IAH GT Map\n\t\n\t" }, "geometry": { "type": "Point", "coordinates": [ -89.48541, 15.46689, 0.0 ] } },
{ "type": "Feature", "properties": { "Name": "Sin Cabezas", "descriptio": "\n\t\n      Tiquisate, Escuintla, Guatemala  (Rank 2)\n      <br/>\n      <br/>Ref. 1991,IGM, IAH GT Map\n\t\n\t" }, "geometry": { "type": "Point", "coordinates": [ -91.45085, 14.10995, 0.0 ] } },
{ "type": "Feature", "properties": { "Name": "Sisila", "descriptio": "\n\t\n      Calkini, Campeche, Mexico  (Rank 2)\n      <br/>\n      <br/>Ref. Williams-Beck 1998\n\t\n\t" }, "geometry": { "type": "Point", "coordinates": [ -89.88882, 20.22192, 0.0 ] } },
{ "type": "Feature", "properties": { "Name": "Takalik Abaj", "descriptio": "\n\t\n      El Asintal, Retalhuleu, Guatemala  (Rank 2)\n      <br/>\n      <br/>Ref. 1991,IGM, IAH GT Map\n\t\n\t" }, "geometry": { "type": "Point", "coordinates": [ -91.73101, 14.63344, 0.0 ] } },
{ "type": "Feature", "properties": { "Name": "Tampoma", "descriptio": "\n\t\n      Panzos, Alta Verapaz, Guatemala  (Rank 2)\n      <br/>\n      <br/>Ref. 1991,IGM, IAH GT Map\n\t\n\t" }, "geometry": { "type": "Point", "coordinates": [ -89.89274, 15.29913, 0.0 ] } },
{ "type": "Feature", "properties": { "Name": "Tayasal", "descriptio": "\n\t\n      Flores, Peten, Guatemala  (Rank 2)\n      <br/>\n      <br/>Ref. 1991,IGM, IAH GT Map\n\t\n\t" }, "geometry": { "type": "Point", "coordinates": [ -89.90035, 16.93987, 0.0 ] } },
{ "type": "Feature", "properties": { "Name": "Tenam", "descriptio": "\n\t\n      Jacaltenango, Huehuetenango, Guatemala  (Rank 2)\n      <br/>\n      <br/>Ref. Borgstede 2002\n\t\n\t" }, "geometry": { "type": "Point", "coordinates": [ -91.648916865320004, 15.720883537380001, 0.0 ] } },
{ "type": "Feature", "properties": { "Name": "Tres Zapotes", "descriptio": "\n\t\n      Santiago Tuxtla, Veracruz, Mexico  (Rank 2)\n      <br/>\n      <br/>Ref. Witschey 2009\n\t\n\t" }, "geometry": { "type": "Point", "coordinates": [ -95.43124, 18.45381, 0.0 ] } },
{ "type": "Feature", "properties": { "Name": "Tulum", "descriptio": "\n\t\n      Solidaridad, Quintana Roo, Mexico  (Rank 2)\n      <br/>\n      <br/>Ref. Mayer 2006\n\t\n\t" }, "geometry": { "type": "Point", "coordinates": [ -87.428766666666661, 20.214316666666665, 0.0 ] } },
{ "type": "Feature", "properties": { "Name": "Uaxactun", "descriptio": "\n\t\n      Flores, Peten, Guatemala  (Rank 2)\n      <br/>\n      <br/>Ref. Mayer 2006\n\t\n\t" }, "geometry": { "type": "Point", "coordinates": [ -89.63775, 17.39795, 0.0 ] } },
{ "type": "Feature", "properties": { "Name": "Uci", "descriptio": "\n\t\n      Motul, Yucatan, Mexico  (Rank 2)\n      <br/>\n      <br/>Ref. Covarrubias,  Villanueva 2008\n\t\n\t" }, "geometry": { "type": "Point", "coordinates": [ -89.269421066700005, 21.125787199600001, 0.0 ] } },
{ "type": "Feature", "properties": { "Name": "Utatlan (Gumarcaj)", "descriptio": "\n\t\n      San Antonio Ilotenango, Quiche, Guatemala  (Rank 2)\n      <br/>\n      <br/>Ref. Kelly 1996\n\t\n\t" }, "geometry": { "type": "Point", "coordinates": [ -91.17200209, 15.02339475, 0.0 ] } },
{ "type": "Feature", "properties": { "Name": "Xacana", "descriptio": "\n\t\n      Huitan, Quezaltenango, Guatemala  (Rank 2)\n      <br/>\n      <br/>Ref. 1991,IGM, IAH GT Map\n\t\n\t" }, "geometry": { "type": "Point", "coordinates": [ -91.64153, 15.05572, 0.0 ] } },
{ "type": "Feature", "properties": { "Name": "Xalapan", "descriptio": "\n\t\n      Jalapa, Jalapa, Guatemala  (Rank 2)\n      <br/>\n      <br/>Ref. 1991,IGM, IAH GT Map\n\t\n\t" }, "geometry": { "type": "Point", "coordinates": [ -89.9932, 14.61871, 0.0 ] } },
{ "type": "Feature", "properties": { "Name": "Xcalumkin", "descriptio": "\n\t\n      Hecelchakan, Campeche, Mexico  (Rank 2)\n      <br/>\n      <br/>Ref. Mayer 2006\n\t\n\t" }, "geometry": { "type": "Point", "coordinates": [ -90.010233333333332, 20.171083333333332, 0.0 ] } },
{ "type": "Feature", "properties": { "Name": "Xcombec", "descriptio": "\n\t\n      Hecelchakan, Campeche, Mexico  (Rank 2)\n      <br/>\n      <br/>Ref. Witschey 2009\n\t\n\t" }, "geometry": { "type": "Point", "coordinates": [ -90.06603, 20.16472, 0.0 ] } },
{ "type": "Feature", "properties": { "Name": "Xcorralche", "descriptio": "\n\t\n      Ticul, Yucatan, Mexico  (Rank 2)\n      <br/>\n      <br/>Ref. Dunning 1992\n\t\n\t" }, "geometry": { "type": "Point", "coordinates": [ -89.53748, 20.29834, 0.0 ] } },
{ "type": "Feature", "properties": { "Name": "Xpuhil 1", "descriptio": "\n\t\n      Hopelchen, Campeche, Mexico  (Rank 2)\n      <br/>\n      <br/>Ref. Mayer 2006\n\t\n\t" }, "geometry": { "type": "Point", "coordinates": [ -89.40716667, 18.51083333, 0.0 ] } },
{ "type": "Feature", "properties": { "Name": "Xpuhil II", "descriptio": "\n\t\n      Hopelchen, Campeche, Mexico  (Rank 2)\n      <br/>\n      <br/>Ref. Mayer 2003\n\t\n\t" }, "geometry": { "type": "Point", "coordinates": [ -89.40645042, 18.49872681, 0.0 ] } },
{ "type": "Feature", "properties": { "Name": "Xuenkal", "descriptio": "\n\t\n      Espita, Yucatan, Mexico  (Rank 2)\n      <br/>\n      <br/>Ref. Covarrubias,  Villanueva 2008\n\t\n\t" }, "geometry": { "type": "Point", "coordinates": [ -88.385652287100001, 21.014274809, 0.0 ] } },
{ "type": "Feature", "properties": { "Name": "Xunantunich", "descriptio": "\n\t\n      , Cayo, Belize  (Rank 2)\n      <br/>\n      <br/>Ref. Witschey 2009\n\t\n\t" }, "geometry": { "type": "Point", "coordinates": [ -89.14145, 17.08926, 0.0 ] } },
{ "type": "Feature", "properties": { "Name": "Xutixtiox", "descriptio": "\n\t\n      Sacapulas, Quiche, Guatemala  (Rank 2)\n      <br/>\n      <br/>Ref. 1991,IGM, IAH GT Map\n\t\n\t" }, "geometry": { "type": "Point", "coordinates": [ -91.13294, 15.27387, 0.0 ] } },
{ "type": "Feature", "properties": { "Name": "Yakaxiu (Yakalxiu)", "descriptio": "\n\t\n      Oxkutzcab, Yucatan, Mexico  (Rank 2)\n      <br/>\n      <br/>Ref. Dunning 1992\n\t\n\t" }, "geometry": { "type": "Point", "coordinates": [ -89.49737, 20.18424, 0.0 ] } },
{ "type": "Feature", "properties": { "Name": "Yalsihon", "descriptio": "\n\t\n      Dzilam Gonzalez, Yucatan, Mexico  (Rank 2)\n      <br/>\n      <br/>Ref. Covarrubias,  Villanueva 2008\n\t\n\t" }, "geometry": { "type": "Point", "coordinates": [ -88.502501582199997, 21.408093327900001, 0.0 ] } },
{ "type": "Feature", "properties": { "Name": "Yaltutud", "descriptio": "\n\t\n      Santa Ana, Peten, Guatemala  (Rank 2)\n      <br/>\n      <br/>Ref. 1991,IGM, IAH GT Map\n\t\n\t" }, "geometry": { "type": "Point", "coordinates": [ -89.37645, 16.85435, 0.0 ] } },
{ "type": "Feature", "properties": { "Name": "Yaxche-Xlabpak", "descriptio": "\n\t\n      Hopelchen, Campeche, Mexico  (Rank 2)\n      <br/>\n      <br/>Ref. Dunning 1992\n\t\n\t" }, "geometry": { "type": "Point", "coordinates": [ -89.71244, 20.12326, 0.0 ] } },
{ "type": "Feature", "properties": { "Name": "Yaxcopoil", "descriptio": "\n\t\n      Uman, Yucatan, Mexico  (Rank 2)\n      <br/>\n      <br/>Ref. Garza and Kurjack 1980\n\t\n\t" }, "geometry": { "type": "Point", "coordinates": [ -89.703453850352204, 20.758140433439138, 0.0 ] } },
{ "type": "Feature", "properties": { "Name": "Yaxha", "descriptio": "\n\t\n      Flores, Peten, Guatemala  (Rank 2)\n      <br/>\n      <br/>Ref. Mayer 2009\n\t\n\t" }, "geometry": { "type": "Point", "coordinates": [ -89.39785, 17.0715, 0.0 ] } },
{ "type": "Feature", "properties": { "Name": "Yaxhom", "descriptio": "\n\t\n      Oxkutzcab, Yucatan, Mexico  (Rank 2)\n      <br/>\n      <br/>Ref. Dunning 1992\n\t\n\t" }, "geometry": { "type": "Point", "coordinates": [ -89.48587, 20.2431, 0.0 ] } },
{ "type": "Feature", "properties": { "Name": "Yaxuna", "descriptio": "\n\t\n      Yaxcaba, Yucatan, Mexico  (Rank 2)\n      <br/>\n      <br/>Ref. Brown C T 2004\n\t\n\t" }, "geometry": { "type": "Point", "coordinates": [ -88.662723897600003, 20.539966707, 0.0 ] } },
{ "type": "Feature", "properties": { "Name": "Zacualpa", "descriptio": "\n\t\n      Joyabaj, Quiche, Guatemala  (Rank 2)\n      <br/>\n      <br/>Ref. 1991,IGM, IAH GT Map\n\t\n\t" }, "geometry": { "type": "Point", "coordinates": [ -90.85862, 15.00288, 0.0 ] } },
{ "type": "Feature", "properties": { "Name": "Zaculeu", "descriptio": "\n\t\n      Zaculeu, Huehuetenango, Guatemala  (Rank 2)\n      <br/>\n      <br/>Ref. Kelly 1996\n\t\n\t" }, "geometry": { "type": "Point", "coordinates": [ -91.49267821, 15.33338349, 0.0 ] } }
]
}
